name,lat,lon,cluster,country,continent
aba,5.43,7.58,1,Nigeria,Africa
martae,6.92,13.05,2,Cameroon,Africa
djibo,14.1,-1.65,3,Burkina_Faso,Africa
kananga,-6.188,21.57,4,Democratic_Republic_of_the_Congo,Africa
moine,-24.896,32.5,5,Mozambique,Africa
gode,5.91,43.6,6,Ethiopia,Africa
karen,17.4116,98.0511,1,Myanmar,Asia
bajonapo,-0.7292,-75.6459,1,Ecuador,Americas
